{
"type": "FeatureCollection",
"name": "stations",
"crs": { "type": "name", "properties": { "name": "urn:ogc:def:crs:OGC:1.3:CRS84" } },
"features": [
{ "type": "Feature", "properties": { "stop_id": "S0100100", "stop_name": "Athénée", "stop_desc": null, "stop_lat": 46.198299, "stop_lon": 6.148743, "zone_id": null, "stop_url": null, "location_type": 1, "parent_station": null }, "geometry": { "type": "Point", "coordinates": [ 6.148743, 46.198299 ] } },
{ "type": "Feature", "properties": { "stop_id": "0100100_I", "stop_name": "Athénée", "stop_desc": null, "stop_lat": 46.198299, "stop_lon": 6.148743, "zone_id": null, "stop_url": null, "location_type": 0, "parent_station": "S0100100" }, "geometry": { "type": "Point", "coordinates": [ 6.148743, 46.198299 ] } },
{ "type": "Feature", "properties": { "stop_id": "ch:1:sloid:92779:0:268432", "stop_name": "Genève, Athénée", "stop_desc": null, "stop_lat": 46.198299, "stop_lon": 6.148743, "zone_id": null, "stop_url": null, "location_type": 0, "parent_station": "S0100100" }, "geometry": { "type": "Point", "coordinates": [ 6.148743, 46.198299 ] } },
{ "type": "Feature", "properties": { "stop_id": "S0100101", "stop_name": "Athénée", "stop_desc": null, "stop_lat": 46.198405, "stop_lon": 6.148546, "zone_id": null, "stop_url": null, "location_type": 1, "parent_station": null }, "geometry": { "type": "Point", "coordinates": [ 6.148546, 46.198405 ] } },
{ "type": "Feature", "properties": { "stop_id": "0100101_J", "stop_name": "Athénée", "stop_desc": null, "stop_lat": 46.198405, "stop_lon": 6.148546, "zone_id": null, "stop_url": null, "location_type": 0, "parent_station": "S0100101" }, "geometry": { "type": "Point", "coordinates": [ 6.148546, 46.198405 ] } },
{ "type": "Feature", "properties": { "stop_id": "ch:1:sloid:92779:0:935484", "stop_name": "Genève, Athénée", "stop_desc": null, "stop_lat": 46.198405, "stop_lon": 6.148546, "zone_id": null, "stop_url": null, "location_type": 0, "parent_station": "S0100101" }, "geometry": { "type": "Point", "coordinates": [ 6.148546, 46.198405 ] } },
{ "type": "Feature", "properties": { "stop_id": "S0100102", "stop_name": "Athénée", "stop_desc": null, "stop_lat": 46.198285, "stop_lon": 6.149093, "zone_id": null, "stop_url": null, "location_type": 1, "parent_station": null }, "geometry": { "type": "Point", "coordinates": [ 6.149093, 46.198285 ] } },
{ "type": "Feature", "properties": { "stop_id": "0100102_K", "stop_name": "Athénée", "stop_desc": null, "stop_lat": 46.198285, "stop_lon": 6.149093, "zone_id": null, "stop_url": null, "location_type": 0, "parent_station": "S0100102" }, "geometry": { "type": "Point", "coordinates": [ 6.149093, 46.198285 ] } },
{ "type": "Feature", "properties": { "stop_id": "ch:1:sloid:92779:0:38284", "stop_name": "Genève, Athénée", "stop_desc": null, "stop_lat": 46.198285, "stop_lon": 6.149093, "zone_id": null, "stop_url": null, "location_type": 0, "parent_station": "S0100102" }, "geometry": { "type": "Point", "coordinates": [ 6.149093, 46.198285 ] } },
{ "type": "Feature", "properties": { "stop_id": "S0100103", "stop_name": "Athénée", "stop_desc": null, "stop_lat": 46.198379, "stop_lon": 6.149493, "zone_id": null, "stop_url": null, "location_type": 1, "parent_station": null }, "geometry": { "type": "Point", "coordinates": [ 6.149493, 46.198379 ] } },
{ "type": "Feature", "properties": { "stop_id": "0100103_L", "stop_name": "Athénée", "stop_desc": null, "stop_lat": 46.198379, "stop_lon": 6.149493, "zone_id": null, "stop_url": null, "location_type": 0, "parent_station": "S0100103" }, "geometry": { "type": "Point", "coordinates": [ 6.149493, 46.198379 ] } },
{ "type": "Feature", "properties": { "stop_id": "ch:1:sloid:92779:0:724258", "stop_name": "Genève, Athénée", "stop_desc": null, "stop_lat": 46.198379, "stop_lon": 6.149493, "zone_id": null, "stop_url": null, "location_type": 0, "parent_station": "S0100103" }, "geometry": { "type": "Point", "coordinates": [ 6.149493, 46.198379 ] } },
{ "type": "Feature", "properties": { "stop_id": "S0100136", "stop_name": "Bel-Air", "stop_desc": null, "stop_lat": 46.205106, "stop_lon": 6.142945, "zone_id": null, "stop_url": null, "location_type": 1, "parent_station": null }, "geometry": { "type": "Point", "coordinates": [ 6.142945, 46.205106 ] } },
{ "type": "Feature", "properties": { "stop_id": "0100136_C", "stop_name": "Bel-Air", "stop_desc": null, "stop_lat": 46.205106, "stop_lon": 6.142945, "zone_id": null, "stop_url": null, "location_type": 0, "parent_station": "S0100136" }, "geometry": { "type": "Point", "coordinates": [ 6.142945, 46.205106 ] } },
{ "type": "Feature", "properties": { "stop_id": "ch:1:sloid:87387:0:358648", "stop_name": "Genève, Bel-Air", "stop_desc": null, "stop_lat": 46.205106, "stop_lon": 6.142945, "zone_id": null, "stop_url": null, "location_type": 0, "parent_station": "S0100136" }, "geometry": { "type": "Point", "coordinates": [ 6.142945, 46.205106 ] } },
{ "type": "Feature", "properties": { "stop_id": "S0100137", "stop_name": "Bel-Air", "stop_desc": null, "stop_lat": 46.204824, "stop_lon": 6.143483, "zone_id": null, "stop_url": null, "location_type": 1, "parent_station": null }, "geometry": { "type": "Point", "coordinates": [ 6.143483, 46.204824 ] } },
{ "type": "Feature", "properties": { "stop_id": "0100137_A", "stop_name": "Bel-Air", "stop_desc": null, "stop_lat": 46.204824, "stop_lon": 6.143483, "zone_id": null, "stop_url": null, "location_type": 0, "parent_station": "S0100137" }, "geometry": { "type": "Point", "coordinates": [ 6.143483, 46.204824 ] } },
{ "type": "Feature", "properties": { "stop_id": "ch:1:sloid:87387:0:222999", "stop_name": "Genève, Bel-Air", "stop_desc": null, "stop_lat": 46.204824, "stop_lon": 6.143483, "zone_id": null, "stop_url": null, "location_type": 0, "parent_station": "S0100137" }, "geometry": { "type": "Point", "coordinates": [ 6.143483, 46.204824 ] } },
{ "type": "Feature", "properties": { "stop_id": "S0100138", "stop_name": "Bel-Air", "stop_desc": null, "stop_lat": 46.204599, "stop_lon": 6.14345, "zone_id": null, "stop_url": null, "location_type": 1, "parent_station": null }, "geometry": { "type": "Point", "coordinates": [ 6.14345, 46.204599 ] } },
{ "type": "Feature", "properties": { "stop_id": "0100138_B", "stop_name": "Bel-Air", "stop_desc": null, "stop_lat": 46.204599, "stop_lon": 6.14345, "zone_id": null, "stop_url": null, "location_type": 0, "parent_station": "S0100138" }, "geometry": { "type": "Point", "coordinates": [ 6.14345, 46.204599 ] } },
{ "type": "Feature", "properties": { "stop_id": "ch:1:sloid:87387:0:812954", "stop_name": "Genève, Bel-Air", "stop_desc": null, "stop_lat": 46.204599, "stop_lon": 6.14345, "zone_id": null, "stop_url": null, "location_type": 0, "parent_station": "S0100138" }, "geometry": { "type": "Point", "coordinates": [ 6.14345, 46.204599 ] } },
{ "type": "Feature", "properties": { "stop_id": "S0100139", "stop_name": "Bel-Air", "stop_desc": null, "stop_lat": 46.204394, "stop_lon": 6.142016, "zone_id": null, "stop_url": null, "location_type": 1, "parent_station": null }, "geometry": { "type": "Point", "coordinates": [ 6.142016, 46.204394 ] } },
{ "type": "Feature", "properties": { "stop_id": "0100139_D", "stop_name": "Bel-Air", "stop_desc": null, "stop_lat": 46.204394, "stop_lon": 6.142016, "zone_id": null, "stop_url": null, "location_type": 0, "parent_station": "S0100139" }, "geometry": { "type": "Point", "coordinates": [ 6.142016, 46.204394 ] } },
{ "type": "Feature", "properties": { "stop_id": "ch:1:sloid:87387:0:547827", "stop_name": "Genève, Bel-Air", "stop_desc": null, "stop_lat": 46.204394, "stop_lon": 6.142016, "zone_id": null, "stop_url": null, "location_type": 0, "parent_station": "S0100139" }, "geometry": { "type": "Point", "coordinates": [ 6.142016, 46.204394 ] } },
{ "type": "Feature", "properties": { "stop_id": "S0100140", "stop_name": "Bel-Air", "stop_desc": null, "stop_lat": 46.203694, "stop_lon": 6.144599, "zone_id": null, "stop_url": null, "location_type": 1, "parent_station": null }, "geometry": { "type": "Point", "coordinates": [ 6.144599, 46.203694 ] } },
{ "type": "Feature", "properties": { "stop_id": "0100140_F", "stop_name": "Bel-Air", "stop_desc": null, "stop_lat": 46.203694, "stop_lon": 6.144599, "zone_id": null, "stop_url": null, "location_type": 0, "parent_station": "S0100140" }, "geometry": { "type": "Point", "coordinates": [ 6.144599, 46.203694 ] } },
{ "type": "Feature", "properties": { "stop_id": "ch:1:sloid:87387:0:128561", "stop_name": "Genève, Bel-Air", "stop_desc": null, "stop_lat": 46.203694, "stop_lon": 6.144599, "zone_id": null, "stop_url": null, "location_type": 0, "parent_station": "S0100140" }, "geometry": { "type": "Point", "coordinates": [ 6.144599, 46.203694 ] } },
{ "type": "Feature", "properties": { "stop_id": "S0100141", "stop_name": "Bel-Air", "stop_desc": null, "stop_lat": 46.203974, "stop_lon": 6.143879, "zone_id": null, "stop_url": null, "location_type": 1, "parent_station": null }, "geometry": { "type": "Point", "coordinates": [ 6.143879, 46.203974 ] } },
{ "type": "Feature", "properties": { "stop_id": "0100141_E", "stop_name": "Bel-Air", "stop_desc": null, "stop_lat": 46.203974, "stop_lon": 6.143879, "zone_id": null, "stop_url": null, "location_type": 0, "parent_station": "S0100141" }, "geometry": { "type": "Point", "coordinates": [ 6.143879, 46.203974 ] } },
{ "type": "Feature", "properties": { "stop_id": "ch:1:sloid:87387:0:544966", "stop_name": "Genève, Bel-Air", "stop_desc": null, "stop_lat": 46.203974, "stop_lon": 6.143879, "zone_id": null, "stop_url": null, "location_type": 0, "parent_station": "S0100141" }, "geometry": { "type": "Point", "coordinates": [ 6.143879, 46.203974 ] } },
{ "type": "Feature", "properties": { "stop_id": "S0100142", "stop_name": "Bel-Air", "stop_desc": null, "stop_lat": 46.203401, "stop_lon": 6.142519, "zone_id": null, "stop_url": null, "location_type": 1, "parent_station": null }, "geometry": { "type": "Point", "coordinates": [ 6.142519, 46.203401 ] } },
{ "type": "Feature", "properties": { "stop_id": "0100142_G", "stop_name": "Bel-Air", "stop_desc": null, "stop_lat": 46.203401, "stop_lon": 6.142519, "zone_id": null, "stop_url": null, "location_type": 0, "parent_station": "S0100142" }, "geometry": { "type": "Point", "coordinates": [ 6.142519, 46.203401 ] } },
{ "type": "Feature", "properties": { "stop_id": "ch:1:sloid:87387:0:491369", "stop_name": "Genève, Bel-Air", "stop_desc": null, "stop_lat": 46.203401, "stop_lon": 6.142519, "zone_id": null, "stop_url": null, "location_type": 0, "parent_station": "S0100142" }, "geometry": { "type": "Point", "coordinates": [ 6.142519, 46.203401 ] } },
{ "type": "Feature", "properties": { "stop_id": "S0100143", "stop_name": "Bel-Air", "stop_desc": null, "stop_lat": 46.203954, "stop_lon": 6.143724, "zone_id": null, "stop_url": null, "location_type": 1, "parent_station": null }, "geometry": { "type": "Point", "coordinates": [ 6.143724, 46.203954 ] } },
{ "type": "Feature", "properties": { "stop_id": "0100143_Z", "stop_name": "Bel-Air", "stop_desc": null, "stop_lat": 46.203954, "stop_lon": 6.143724, "zone_id": null, "stop_url": null, "location_type": 0, "parent_station": "S0100143" }, "geometry": { "type": "Point", "coordinates": [ 6.143724, 46.203954 ] } },
{ "type": "Feature", "properties": { "stop_id": "ch:1:sloid:87387:0:114768", "stop_name": "Genève, Bel-Air", "stop_desc": null, "stop_lat": 46.203954, "stop_lon": 6.143724, "zone_id": null, "stop_url": null, "location_type": 0, "parent_station": "S0100143" }, "geometry": { "type": "Point", "coordinates": [ 6.143724, 46.203954 ] } },
{ "type": "Feature", "properties": { "stop_id": "S0100172", "stop_name": "Bourg-de-Four", "stop_desc": null, "stop_lat": 46.200168, "stop_lon": 6.148582, "zone_id": null, "stop_url": null, "location_type": 1, "parent_station": null }, "geometry": { "type": "Point", "coordinates": [ 6.148582, 46.200168 ] } },
{ "type": "Feature", "properties": { "stop_id": "0100172_Q", "stop_name": "Bourg-de-Four", "stop_desc": null, "stop_lat": 46.200168, "stop_lon": 6.148582, "zone_id": null, "stop_url": null, "location_type": 0, "parent_station": "S0100172" }, "geometry": { "type": "Point", "coordinates": [ 6.148582, 46.200168 ] } },
{ "type": "Feature", "properties": { "stop_id": "ch:1:sloid:92792:0:712319", "stop_name": "Genève, Bourg-de-Four", "stop_desc": null, "stop_lat": 46.200168, "stop_lon": 6.148582, "zone_id": null, "stop_url": null, "location_type": 0, "parent_station": "S0100172" }, "geometry": { "type": "Point", "coordinates": [ 6.148582, 46.200168 ] } },
{ "type": "Feature", "properties": { "stop_id": "S0100292", "stop_name": "Bovy-Lysberg", "stop_desc": null, "stop_lat": 46.202397, "stop_lon": 6.142854, "zone_id": null, "stop_url": null, "location_type": 1, "parent_station": null }, "geometry": { "type": "Point", "coordinates": [ 6.142854, 46.202397 ] } },
{ "type": "Feature", "properties": { "stop_id": "0100292_U", "stop_name": "Bovy-Lysberg", "stop_desc": null, "stop_lat": 46.202397, "stop_lon": 6.142854, "zone_id": null, "stop_url": null, "location_type": 0, "parent_station": "S0100292" }, "geometry": { "type": "Point", "coordinates": [ 6.142854, 46.202397 ] } },
{ "type": "Feature", "properties": { "stop_id": "ch:1:sloid:92794:0:832098", "stop_name": "Genève, Bovy-Lysberg", "stop_desc": null, "stop_lat": 46.202397, "stop_lon": 6.142854, "zone_id": null, "stop_url": null, "location_type": 0, "parent_station": "S0100292" }, "geometry": { "type": "Point", "coordinates": [ 6.142854, 46.202397 ] } },
{ "type": "Feature", "properties": { "stop_id": "S0100335", "stop_name": "Cathédrale", "stop_desc": null, "stop_lat": 46.201509, "stop_lon": 6.147825, "zone_id": null, "stop_url": null, "location_type": 1, "parent_station": null }, "geometry": { "type": "Point", "coordinates": [ 6.147825, 46.201509 ] } },
{ "type": "Feature", "properties": { "stop_id": "0100335_V", "stop_name": "Cathédrale", "stop_desc": null, "stop_lat": 46.201509, "stop_lon": 6.147825, "zone_id": null, "stop_url": null, "location_type": 0, "parent_station": "S0100335" }, "geometry": { "type": "Point", "coordinates": [ 6.147825, 46.201509 ] } },
{ "type": "Feature", "properties": { "stop_id": "ch:1:sloid:92799:0:952786", "stop_name": "Genève, Cathédrale", "stop_desc": null, "stop_lat": 46.201509, "stop_lon": 6.147825, "zone_id": null, "stop_url": null, "location_type": 0, "parent_station": "S0100335" }, "geometry": { "type": "Point", "coordinates": [ 6.147825, 46.201509 ] } },
{ "type": "Feature", "properties": { "stop_id": "S0100671", "stop_name": "Eglise Russe", "stop_desc": null, "stop_lat": 46.198481, "stop_lon": 6.152846, "zone_id": null, "stop_url": null, "location_type": 1, "parent_station": null }, "geometry": { "type": "Point", "coordinates": [ 6.152846, 46.198481 ] } },
{ "type": "Feature", "properties": { "stop_id": "0100671_E", "stop_name": "Eglise Russe", "stop_desc": null, "stop_lat": 46.198481, "stop_lon": 6.152846, "zone_id": null, "stop_url": null, "location_type": 0, "parent_station": "S0100671" }, "geometry": { "type": "Point", "coordinates": [ 6.152846, 46.198481 ] } },
{ "type": "Feature", "properties": { "stop_id": "ch:1:sloid:92820:0:121822", "stop_name": "Genève, Eglise Russe", "stop_desc": null, "stop_lat": 46.198481, "stop_lon": 6.152846, "zone_id": null, "stop_url": null, "location_type": 0, "parent_station": "S0100671" }, "geometry": { "type": "Point", "coordinates": [ 6.152846, 46.198481 ] } },
{ "type": "Feature", "properties": { "stop_id": "S0100722", "stop_name": "Florissant", "stop_desc": null, "stop_lat": 46.197259, "stop_lon": 6.153821, "zone_id": null, "stop_url": null, "location_type": 1, "parent_station": null }, "geometry": { "type": "Point", "coordinates": [ 6.153821, 46.197259 ] } },
{ "type": "Feature", "properties": { "stop_id": "0100722_S", "stop_name": "Florissant", "stop_desc": null, "stop_lat": 46.197259, "stop_lon": 6.153821, "zone_id": null, "stop_url": null, "location_type": 0, "parent_station": "S0100722" }, "geometry": { "type": "Point", "coordinates": [ 6.153821, 46.197259 ] } },
{ "type": "Feature", "properties": { "stop_id": "ch:1:sloid:92824:0:206355", "stop_name": "Genève, Florissant", "stop_desc": null, "stop_lat": 46.197259, "stop_lon": 6.153821, "zone_id": null, "stop_url": null, "location_type": 0, "parent_station": "S0100722" }, "geometry": { "type": "Point", "coordinates": [ 6.153821, 46.197259 ] } },
{ "type": "Feature", "properties": { "stop_id": "S0100903", "stop_name": "Hôtel-de-Ville", "stop_desc": null, "stop_lat": 46.201064, "stop_lon": 6.146618, "zone_id": null, "stop_url": null, "location_type": 1, "parent_station": null }, "geometry": { "type": "Point", "coordinates": [ 6.146618, 46.201064 ] } },
{ "type": "Feature", "properties": { "stop_id": "0100903_O", "stop_name": "Hôtel-de-Ville", "stop_desc": null, "stop_lat": 46.201064, "stop_lon": 6.146618, "zone_id": null, "stop_url": null, "location_type": 0, "parent_station": "S0100903" }, "geometry": { "type": "Point", "coordinates": [ 6.146618, 46.201064 ] } },
{ "type": "Feature", "properties": { "stop_id": "ch:1:sloid:92838:0:458555", "stop_name": "Genève, Hôtel-de-Ville", "stop_desc": null, "stop_lat": 46.201064, "stop_lon": 6.146618, "zone_id": null, "stop_url": null, "location_type": 0, "parent_station": "S0100903" }, "geometry": { "type": "Point", "coordinates": [ 6.146618, 46.201064 ] } },
{ "type": "Feature", "properties": { "stop_id": "S0100915", "stop_name": "Musée d'art et d'histoire", "stop_desc": null, "stop_lat": 46.199961, "stop_lon": 6.151723, "zone_id": null, "stop_url": null, "location_type": 1, "parent_station": null }, "geometry": { "type": "Point", "coordinates": [ 6.151723, 46.199961 ] } },
{ "type": "Feature", "properties": { "stop_id": "0100915_N", "stop_name": "Musée d'art et d'histoire", "stop_desc": null, "stop_lat": 46.199961, "stop_lon": 6.151723, "zone_id": null, "stop_url": null, "location_type": 0, "parent_station": "S0100915" }, "geometry": { "type": "Point", "coordinates": [ 6.151723, 46.199961 ] } },
{ "type": "Feature", "properties": { "stop_id": "ch:1:sloid:92851:0:144016", "stop_name": "Genève, Musée art et histoire", "stop_desc": null, "stop_lat": 46.199961, "stop_lon": 6.151723, "zone_id": null, "stop_url": null, "location_type": 0, "parent_station": "S0100915" }, "geometry": { "type": "Point", "coordinates": [ 6.151723, 46.199961 ] } },
{ "type": "Feature", "properties": { "stop_id": "S0100916", "stop_name": "Musée d'art et d'histoire", "stop_desc": null, "stop_lat": 46.19941, "stop_lon": 6.150699, "zone_id": null, "stop_url": null, "location_type": 1, "parent_station": null }, "geometry": { "type": "Point", "coordinates": [ 6.150699, 46.19941 ] } },
{ "type": "Feature", "properties": { "stop_id": "0100916_O", "stop_name": "Musée d'art et d'histoire", "stop_desc": null, "stop_lat": 46.19941, "stop_lon": 6.150699, "zone_id": null, "stop_url": null, "location_type": 0, "parent_station": "S0100916" }, "geometry": { "type": "Point", "coordinates": [ 6.150699, 46.19941 ] } },
{ "type": "Feature", "properties": { "stop_id": "ch:1:sloid:92851:0:856098", "stop_name": "Genève, Musée art et histoire", "stop_desc": null, "stop_lat": 46.19941, "stop_lon": 6.150699, "zone_id": null, "stop_url": null, "location_type": 0, "parent_station": "S0100916" }, "geometry": { "type": "Point", "coordinates": [ 6.150699, 46.19941 ] } },
{ "type": "Feature", "properties": { "stop_id": "S0101106", "stop_name": "Métropole", "stop_desc": null, "stop_lat": 46.203241, "stop_lon": 6.151399, "zone_id": null, "stop_url": null, "location_type": 1, "parent_station": null }, "geometry": { "type": "Point", "coordinates": [ 6.151399, 46.203241 ] } },
{ "type": "Feature", "properties": { "stop_id": "0101106_M", "stop_name": "Métropole", "stop_desc": null, "stop_lat": 46.203241, "stop_lon": 6.151399, "zone_id": null, "stop_url": null, "location_type": 0, "parent_station": "S0101106" }, "geometry": { "type": "Point", "coordinates": [ 6.151399, 46.203241 ] } },
{ "type": "Feature", "properties": { "stop_id": "ch:1:sloid:92856:0:852722", "stop_name": "Genève, Métropole", "stop_desc": null, "stop_lat": 46.203241, "stop_lon": 6.151399, "zone_id": null, "stop_url": null, "location_type": 0, "parent_station": "S0101106" }, "geometry": { "type": "Point", "coordinates": [ 6.151399, 46.203241 ] } },
{ "type": "Feature", "properties": { "stop_id": "S0101107", "stop_name": "Métropole", "stop_desc": null, "stop_lat": 46.203342, "stop_lon": 6.150775, "zone_id": null, "stop_url": null, "location_type": 1, "parent_station": null }, "geometry": { "type": "Point", "coordinates": [ 6.150775, 46.203342 ] } },
{ "type": "Feature", "properties": { "stop_id": "0101107_N", "stop_name": "Métropole", "stop_desc": null, "stop_lat": 46.203342, "stop_lon": 6.150775, "zone_id": null, "stop_url": null, "location_type": 0, "parent_station": "S0101107" }, "geometry": { "type": "Point", "coordinates": [ 6.150775, 46.203342 ] } },
{ "type": "Feature", "properties": { "stop_id": "ch:1:sloid:92856:0:780275", "stop_name": "Genève, Métropole", "stop_desc": null, "stop_lat": 46.203342, "stop_lon": 6.150775, "zone_id": null, "stop_url": null, "location_type": 0, "parent_station": "S0101107" }, "geometry": { "type": "Point", "coordinates": [ 6.150775, 46.203342 ] } },
{ "type": "Feature", "properties": { "stop_id": "S0101136", "stop_name": "Molard", "stop_desc": null, "stop_lat": 46.203963, "stop_lon": 6.148441, "zone_id": null, "stop_url": null, "location_type": 1, "parent_station": null }, "geometry": { "type": "Point", "coordinates": [ 6.148441, 46.203963 ] } },
{ "type": "Feature", "properties": { "stop_id": "0101136_W", "stop_name": "Molard", "stop_desc": null, "stop_lat": 46.203963, "stop_lon": 6.148441, "zone_id": null, "stop_url": null, "location_type": 0, "parent_station": "S0101136" }, "geometry": { "type": "Point", "coordinates": [ 6.148441, 46.203963 ] } },
{ "type": "Feature", "properties": { "stop_id": "ch:1:sloid:92862:0:483701", "stop_name": "Genève, Molard", "stop_desc": null, "stop_lat": 46.203963, "stop_lon": 6.148441, "zone_id": null, "stop_url": null, "location_type": 0, "parent_station": "S0101136" }, "geometry": { "type": "Point", "coordinates": [ 6.148441, 46.203963 ] } },
{ "type": "Feature", "properties": { "stop_id": "S0101137", "stop_name": "Molard", "stop_desc": null, "stop_lat": 46.204126, "stop_lon": 6.14854, "zone_id": null, "stop_url": null, "location_type": 1, "parent_station": null }, "geometry": { "type": "Point", "coordinates": [ 6.14854, 46.204126 ] } },
{ "type": "Feature", "properties": { "stop_id": "0101137_X", "stop_name": "Molard", "stop_desc": null, "stop_lat": 46.204126, "stop_lon": 6.14854, "zone_id": null, "stop_url": null, "location_type": 0, "parent_station": "S0101137" }, "geometry": { "type": "Point", "coordinates": [ 6.14854, 46.204126 ] } },
{ "type": "Feature", "properties": { "stop_id": "ch:1:sloid:92862:0:222488", "stop_name": "Genève, Molard", "stop_desc": null, "stop_lat": 46.204126, "stop_lon": 6.14854, "zone_id": null, "stop_url": null, "location_type": 0, "parent_station": "S0101137" }, "geometry": { "type": "Point", "coordinates": [ 6.14854, 46.204126 ] } },
{ "type": "Feature", "properties": { "stop_id": "S0101138", "stop_name": "Molard", "stop_desc": null, "stop_lat": 46.203024, "stop_lon": 6.147336, "zone_id": null, "stop_url": null, "location_type": 1, "parent_station": null }, "geometry": { "type": "Point", "coordinates": [ 6.147336, 46.203024 ] } },
{ "type": "Feature", "properties": { "stop_id": "0101138_Y", "stop_name": "Molard", "stop_desc": null, "stop_lat": 46.203024, "stop_lon": 6.147336, "zone_id": null, "stop_url": null, "location_type": 0, "parent_station": "S0101138" }, "geometry": { "type": "Point", "coordinates": [ 6.147336, 46.203024 ] } },
{ "type": "Feature", "properties": { "stop_id": "ch:1:sloid:92862:0:107024", "stop_name": "Genève, Molard", "stop_desc": null, "stop_lat": 46.203024, "stop_lon": 6.147336, "zone_id": null, "stop_url": null, "location_type": 0, "parent_station": "S0101138" }, "geometry": { "type": "Point", "coordinates": [ 6.147336, 46.203024 ] } },
{ "type": "Feature", "properties": { "stop_id": "S0101139", "stop_name": "Molard", "stop_desc": null, "stop_lat": 46.203236, "stop_lon": 6.146968, "zone_id": null, "stop_url": null, "location_type": 1, "parent_station": null }, "geometry": { "type": "Point", "coordinates": [ 6.146968, 46.203236 ] } },
{ "type": "Feature", "properties": { "stop_id": "0101139_Z", "stop_name": "Molard", "stop_desc": null, "stop_lat": 46.203236, "stop_lon": 6.146968, "zone_id": null, "stop_url": null, "location_type": 0, "parent_station": "S0101139" }, "geometry": { "type": "Point", "coordinates": [ 6.146968, 46.203236 ] } },
{ "type": "Feature", "properties": { "stop_id": "ch:1:sloid:92862:0:143914", "stop_name": "Genève, Molard", "stop_desc": null, "stop_lat": 46.203236, "stop_lon": 6.146968, "zone_id": null, "stop_url": null, "location_type": 0, "parent_station": "S0101139" }, "geometry": { "type": "Point", "coordinates": [ 6.146968, 46.203236 ] } },
{ "type": "Feature", "properties": { "stop_id": "S0101179", "stop_name": "Mont-Blanc", "stop_desc": null, "stop_lat": 46.207063, "stop_lon": 6.147279, "zone_id": null, "stop_url": null, "location_type": 1, "parent_station": null }, "geometry": { "type": "Point", "coordinates": [ 6.147279, 46.207063 ] } },
{ "type": "Feature", "properties": { "stop_id": "0101179_G", "stop_name": "Mont-Blanc", "stop_desc": null, "stop_lat": 46.207063, "stop_lon": 6.147279, "zone_id": null, "stop_url": null, "location_type": 0, "parent_station": "S0101179" }, "geometry": { "type": "Point", "coordinates": [ 6.147279, 46.207063 ] } },
{ "type": "Feature", "properties": { "stop_id": "ch:1:sloid:92864:0:294522", "stop_name": "Genève, Mont-Blanc", "stop_desc": null, "stop_lat": 46.207063, "stop_lon": 6.147279, "zone_id": null, "stop_url": null, "location_type": 0, "parent_station": "S0101179" }, "geometry": { "type": "Point", "coordinates": [ 6.147279, 46.207063 ] } },
{ "type": "Feature", "properties": { "stop_id": "S0101180", "stop_name": "Mont-Blanc", "stop_desc": null, "stop_lat": 46.207631, "stop_lon": 6.146643, "zone_id": null, "stop_url": null, "location_type": 1, "parent_station": null }, "geometry": { "type": "Point", "coordinates": [ 6.146643, 46.207631 ] } },
{ "type": "Feature", "properties": { "stop_id": "0101180_H", "stop_name": "Mont-Blanc", "stop_desc": null, "stop_lat": 46.207631, "stop_lon": 6.146643, "zone_id": null, "stop_url": null, "location_type": 0, "parent_station": "S0101180" }, "geometry": { "type": "Point", "coordinates": [ 6.146643, 46.207631 ] } },
{ "type": "Feature", "properties": { "stop_id": "ch:1:sloid:92864:0:372352", "stop_name": "Genève, Mont-Blanc", "stop_desc": null, "stop_lat": 46.207631, "stop_lon": 6.146643, "zone_id": null, "stop_url": null, "location_type": 0, "parent_station": "S0101180" }, "geometry": { "type": "Point", "coordinates": [ 6.146643, 46.207631 ] } },
{ "type": "Feature", "properties": { "stop_id": "S0101306", "stop_name": "Petit-Palais", "stop_desc": null, "stop_lat": 46.19773, "stop_lon": 6.15175, "zone_id": null, "stop_url": null, "location_type": 1, "parent_station": null }, "geometry": { "type": "Point", "coordinates": [ 6.15175, 46.19773 ] } },
{ "type": "Feature", "properties": { "stop_id": "0101306_G", "stop_name": "Petit-Palais", "stop_desc": null, "stop_lat": 46.19773, "stop_lon": 6.15175, "zone_id": null, "stop_url": null, "location_type": 0, "parent_station": "S0101306" }, "geometry": { "type": "Point", "coordinates": [ 6.15175, 46.19773 ] } },
{ "type": "Feature", "properties": { "stop_id": "ch:1:sloid:92879:0:152244", "stop_name": "Genève, Petit-Palais", "stop_desc": null, "stop_lat": 46.19773, "stop_lon": 6.15175, "zone_id": null, "stop_url": null, "location_type": 0, "parent_station": "S0101306" }, "geometry": { "type": "Point", "coordinates": [ 6.15175, 46.19773 ] } },
{ "type": "Feature", "properties": { "stop_id": "S0101346", "stop_name": "Place des Eaux-Vives", "stop_desc": null, "stop_lat": 46.202549, "stop_lon": 6.155432, "zone_id": null, "stop_url": null, "location_type": 1, "parent_station": null }, "geometry": { "type": "Point", "coordinates": [ 6.155432, 46.202549 ] } },
{ "type": "Feature", "properties": { "stop_id": "0101346_O", "stop_name": "Place des Eaux-Vives", "stop_desc": null, "stop_lat": 46.202549, "stop_lon": 6.155432, "zone_id": null, "stop_url": null, "location_type": 0, "parent_station": "S0101346" }, "geometry": { "type": "Point", "coordinates": [ 6.155432, 46.202549 ] } },
{ "type": "Feature", "properties": { "stop_id": "ch:1:sloid:92883:0:175684", "stop_name": "Genève, Place des Eaux-Vives", "stop_desc": null, "stop_lat": 46.202549, "stop_lon": 6.155432, "zone_id": null, "stop_url": null, "location_type": 0, "parent_station": "S0101346" }, "geometry": { "type": "Point", "coordinates": [ 6.155432, 46.202549 ] } },
{ "type": "Feature", "properties": { "stop_id": "S0101347", "stop_name": "Place des Eaux-Vives", "stop_desc": null, "stop_lat": 46.202454, "stop_lon": 6.155732, "zone_id": null, "stop_url": null, "location_type": 1, "parent_station": null }, "geometry": { "type": "Point", "coordinates": [ 6.155732, 46.202454 ] } },
{ "type": "Feature", "properties": { "stop_id": "0101347_P", "stop_name": "Place des Eaux-Vives", "stop_desc": null, "stop_lat": 46.202454, "stop_lon": 6.155732, "zone_id": null, "stop_url": null, "location_type": 0, "parent_station": "S0101347" }, "geometry": { "type": "Point", "coordinates": [ 6.155732, 46.202454 ] } },
{ "type": "Feature", "properties": { "stop_id": "ch:1:sloid:92883:0:827592", "stop_name": "Genève, Place des Eaux-Vives", "stop_desc": null, "stop_lat": 46.202454, "stop_lon": 6.155732, "zone_id": null, "stop_url": null, "location_type": 0, "parent_station": "S0101347" }, "geometry": { "type": "Point", "coordinates": [ 6.155732, 46.202454 ] } },
{ "type": "Feature", "properties": { "stop_id": "S0101348", "stop_name": "Place des Eaux-Vives", "stop_desc": null, "stop_lat": 46.202292, "stop_lon": 6.156566, "zone_id": null, "stop_url": null, "location_type": 1, "parent_station": null }, "geometry": { "type": "Point", "coordinates": [ 6.156566, 46.202292 ] } },
{ "type": "Feature", "properties": { "stop_id": "0101348_Q", "stop_name": "Place des Eaux-Vives", "stop_desc": null, "stop_lat": 46.202292, "stop_lon": 6.156566, "zone_id": null, "stop_url": null, "location_type": 0, "parent_station": "S0101348" }, "geometry": { "type": "Point", "coordinates": [ 6.156566, 46.202292 ] } },
{ "type": "Feature", "properties": { "stop_id": "ch:1:sloid:92883:0:342411", "stop_name": "Genève, Place des Eaux-Vives", "stop_desc": null, "stop_lat": 46.202292, "stop_lon": 6.156566, "zone_id": null, "stop_url": null, "location_type": 0, "parent_station": "S0101348" }, "geometry": { "type": "Point", "coordinates": [ 6.156566, 46.202292 ] } },
{ "type": "Feature", "properties": { "stop_id": "S0101349", "stop_name": "Place des Eaux-Vives", "stop_desc": null, "stop_lat": 46.201833, "stop_lon": 6.15576, "zone_id": null, "stop_url": null, "location_type": 1, "parent_station": null }, "geometry": { "type": "Point", "coordinates": [ 6.15576, 46.201833 ] } },
{ "type": "Feature", "properties": { "stop_id": "0101349_R", "stop_name": "Place des Eaux-Vives", "stop_desc": null, "stop_lat": 46.201833, "stop_lon": 6.15576, "zone_id": null, "stop_url": null, "location_type": 0, "parent_station": "S0101349" }, "geometry": { "type": "Point", "coordinates": [ 6.15576, 46.201833 ] } },
{ "type": "Feature", "properties": { "stop_id": "ch:1:sloid:92883:0:440120", "stop_name": "Genève, Place des Eaux-Vives", "stop_desc": null, "stop_lat": 46.201833, "stop_lon": 6.15576, "zone_id": null, "stop_url": null, "location_type": 0, "parent_station": "S0101349" }, "geometry": { "type": "Point", "coordinates": [ 6.15576, 46.201833 ] } },
{ "type": "Feature", "properties": { "stop_id": "S0101350", "stop_name": "Place des Eaux-Vives", "stop_desc": null, "stop_lat": 46.201801, "stop_lon": 6.156875, "zone_id": null, "stop_url": null, "location_type": 1, "parent_station": null }, "geometry": { "type": "Point", "coordinates": [ 6.156875, 46.201801 ] } },
{ "type": "Feature", "properties": { "stop_id": "0101350_S", "stop_name": "Place des Eaux-Vives", "stop_desc": null, "stop_lat": 46.201801, "stop_lon": 6.156875, "zone_id": null, "stop_url": null, "location_type": 0, "parent_station": "S0101350" }, "geometry": { "type": "Point", "coordinates": [ 6.156875, 46.201801 ] } },
{ "type": "Feature", "properties": { "stop_id": "ch:1:sloid:92883:0:551362", "stop_name": "Genève, Place des Eaux-Vives", "stop_desc": null, "stop_lat": 46.201801, "stop_lon": 6.156875, "zone_id": null, "stop_url": null, "location_type": 0, "parent_station": "S0101350" }, "geometry": { "type": "Point", "coordinates": [ 6.156875, 46.201801 ] } },
{ "type": "Feature", "properties": { "stop_id": "S0101351", "stop_name": "Palais Eynard", "stop_desc": null, "stop_lat": 46.199968, "stop_lon": 6.146838, "zone_id": null, "stop_url": null, "location_type": 1, "parent_station": null }, "geometry": { "type": "Point", "coordinates": [ 6.146838, 46.199968 ] } },
{ "type": "Feature", "properties": { "stop_id": "0101351_R", "stop_name": "Palais Eynard", "stop_desc": null, "stop_lat": 46.199968, "stop_lon": 6.146838, "zone_id": null, "stop_url": null, "location_type": 0, "parent_station": "S0101351" }, "geometry": { "type": "Point", "coordinates": [ 6.146838, 46.199968 ] } },
{ "type": "Feature", "properties": { "stop_id": "ch:1:sloid:95021:0:22341", "stop_name": "Genève, Palais Eynard", "stop_desc": null, "stop_lat": 46.199968, "stop_lon": 6.146838, "zone_id": null, "stop_url": null, "location_type": 0, "parent_station": "S0101351" }, "geometry": { "type": "Point", "coordinates": [ 6.146838, 46.199968 ] } },
{ "type": "Feature", "properties": { "stop_id": "S0101352", "stop_name": "Palais Eynard", "stop_desc": null, "stop_lat": 46.200093, "stop_lon": 6.146718, "zone_id": null, "stop_url": null, "location_type": 1, "parent_station": null }, "geometry": { "type": "Point", "coordinates": [ 6.146718, 46.200093 ] } },
{ "type": "Feature", "properties": { "stop_id": "0101352_S", "stop_name": "Palais Eynard", "stop_desc": null, "stop_lat": 46.200093, "stop_lon": 6.146718, "zone_id": null, "stop_url": null, "location_type": 0, "parent_station": "S0101352" }, "geometry": { "type": "Point", "coordinates": [ 6.146718, 46.200093 ] } },
{ "type": "Feature", "properties": { "stop_id": "ch:1:sloid:95021:0:44050", "stop_name": "Genève, Palais Eynard", "stop_desc": null, "stop_lat": 46.200093, "stop_lon": 6.146718, "zone_id": null, "stop_url": null, "location_type": 0, "parent_station": "S0101352" }, "geometry": { "type": "Point", "coordinates": [ 6.146718, 46.200093 ] } },
{ "type": "Feature", "properties": { "stop_id": "S0101384", "stop_name": "Place de Neuve", "stop_desc": null, "stop_lat": 46.201563, "stop_lon": 6.143872, "zone_id": null, "stop_url": null, "location_type": 1, "parent_station": null }, "geometry": { "type": "Point", "coordinates": [ 6.143872, 46.201563 ] } },
{ "type": "Feature", "properties": { "stop_id": "0101384_N", "stop_name": "Place de Neuve", "stop_desc": null, "stop_lat": 46.201563, "stop_lon": 6.143872, "zone_id": null, "stop_url": null, "location_type": 0, "parent_station": "S0101384" }, "geometry": { "type": "Point", "coordinates": [ 6.143872, 46.201563 ] } },
{ "type": "Feature", "properties": { "stop_id": "ch:1:sloid:92885:0:296556", "stop_name": "Genève, Place de Neuve", "stop_desc": null, "stop_lat": 46.201563, "stop_lon": 6.143872, "zone_id": null, "stop_url": null, "location_type": 0, "parent_station": "S0101384" }, "geometry": { "type": "Point", "coordinates": [ 6.143872, 46.201563 ] } },
{ "type": "Feature", "properties": { "stop_id": "S0101385", "stop_name": "Place de Neuve", "stop_desc": null, "stop_lat": 46.201031, "stop_lon": 6.144584, "zone_id": null, "stop_url": null, "location_type": 1, "parent_station": null }, "geometry": { "type": "Point", "coordinates": [ 6.144584, 46.201031 ] } },
{ "type": "Feature", "properties": { "stop_id": "0101385_L", "stop_name": "Place de Neuve", "stop_desc": null, "stop_lat": 46.201031, "stop_lon": 6.144584, "zone_id": null, "stop_url": null, "location_type": 0, "parent_station": "S0101385" }, "geometry": { "type": "Point", "coordinates": [ 6.144584, 46.201031 ] } },
{ "type": "Feature", "properties": { "stop_id": "ch:1:sloid:92885:0:176445", "stop_name": "Genève, Place de Neuve", "stop_desc": null, "stop_lat": 46.201031, "stop_lon": 6.144584, "zone_id": null, "stop_url": null, "location_type": 0, "parent_station": "S0101385" }, "geometry": { "type": "Point", "coordinates": [ 6.144584, 46.201031 ] } },
{ "type": "Feature", "properties": { "stop_id": "S0101386", "stop_name": "Place de Neuve", "stop_desc": null, "stop_lat": 46.201279, "stop_lon": 6.144228, "zone_id": null, "stop_url": null, "location_type": 1, "parent_station": null }, "geometry": { "type": "Point", "coordinates": [ 6.144228, 46.201279 ] } },
{ "type": "Feature", "properties": { "stop_id": "0101386_M", "stop_name": "Place de Neuve", "stop_desc": null, "stop_lat": 46.201279, "stop_lon": 6.144228, "zone_id": null, "stop_url": null, "location_type": 0, "parent_station": "S0101386" }, "geometry": { "type": "Point", "coordinates": [ 6.144228, 46.201279 ] } },
{ "type": "Feature", "properties": { "stop_id": "ch:1:sloid:92885:0:785930", "stop_name": "Genève, Place de Neuve", "stop_desc": null, "stop_lat": 46.201279, "stop_lon": 6.144228, "zone_id": null, "stop_url": null, "location_type": 0, "parent_station": "S0101386" }, "geometry": { "type": "Point", "coordinates": [ 6.144228, 46.201279 ] } },
{ "type": "Feature", "properties": { "stop_id": "S0101387", "stop_name": "Place de Neuve", "stop_desc": null, "stop_lat": 46.200995, "stop_lon": 6.143795, "zone_id": null, "stop_url": null, "location_type": 1, "parent_station": null }, "geometry": { "type": "Point", "coordinates": [ 6.143795, 46.200995 ] } },
{ "type": "Feature", "properties": { "stop_id": "0101387_I", "stop_name": "Place de Neuve", "stop_desc": null, "stop_lat": 46.200995, "stop_lon": 6.143795, "zone_id": null, "stop_url": null, "location_type": 0, "parent_station": "S0101387" }, "geometry": { "type": "Point", "coordinates": [ 6.143795, 46.200995 ] } },
{ "type": "Feature", "properties": { "stop_id": "ch:1:sloid:92885:0:364009", "stop_name": "Genève, Place de Neuve", "stop_desc": null, "stop_lat": 46.200995, "stop_lon": 6.143795, "zone_id": null, "stop_url": null, "location_type": 0, "parent_station": "S0101387" }, "geometry": { "type": "Point", "coordinates": [ 6.143795, 46.200995 ] } },
{ "type": "Feature", "properties": { "stop_id": "S0101388", "stop_name": "Place de Neuve", "stop_desc": null, "stop_lat": 46.200747, "stop_lon": 6.143334, "zone_id": null, "stop_url": null, "location_type": 1, "parent_station": null }, "geometry": { "type": "Point", "coordinates": [ 6.143334, 46.200747 ] } },
{ "type": "Feature", "properties": { "stop_id": "0101388_J", "stop_name": "Place de Neuve", "stop_desc": null, "stop_lat": 46.200747, "stop_lon": 6.143334, "zone_id": null, "stop_url": null, "location_type": 0, "parent_station": "S0101388" }, "geometry": { "type": "Point", "coordinates": [ 6.143334, 46.200747 ] } },
{ "type": "Feature", "properties": { "stop_id": "ch:1:sloid:92885:0:31158", "stop_name": "Genève, Place de Neuve", "stop_desc": null, "stop_lat": 46.200747, "stop_lon": 6.143334, "zone_id": null, "stop_url": null, "location_type": 0, "parent_station": "S0101388" }, "geometry": { "type": "Point", "coordinates": [ 6.143334, 46.200747 ] } },
{ "type": "Feature", "properties": { "stop_id": "S0101389", "stop_name": "Place de Neuve", "stop_desc": null, "stop_lat": 46.201002, "stop_lon": 6.1436, "zone_id": null, "stop_url": null, "location_type": 1, "parent_station": null }, "geometry": { "type": "Point", "coordinates": [ 6.1436, 46.201002 ] } },
{ "type": "Feature", "properties": { "stop_id": "0101389_K", "stop_name": "Place de Neuve", "stop_desc": null, "stop_lat": 46.201002, "stop_lon": 6.1436, "zone_id": null, "stop_url": null, "location_type": 0, "parent_station": "S0101389" }, "geometry": { "type": "Point", "coordinates": [ 6.1436, 46.201002 ] } },
{ "type": "Feature", "properties": { "stop_id": "ch:1:sloid:92885:0:311650", "stop_name": "Genève, Place de Neuve", "stop_desc": null, "stop_lat": 46.201002, "stop_lon": 6.1436, "zone_id": null, "stop_url": null, "location_type": 0, "parent_station": "S0101389" }, "geometry": { "type": "Point", "coordinates": [ 6.1436, 46.201002 ] } },
{ "type": "Feature", "properties": { "stop_id": "S0101545", "stop_name": "Rive", "stop_desc": null, "stop_lat": 46.201764, "stop_lon": 6.15282, "zone_id": null, "stop_url": null, "location_type": 1, "parent_station": null }, "geometry": { "type": "Point", "coordinates": [ 6.15282, 46.201764 ] } },
{ "type": "Feature", "properties": { "stop_id": "0101545_B", "stop_name": "Rive", "stop_desc": null, "stop_lat": 46.201764, "stop_lon": 6.15282, "zone_id": null, "stop_url": null, "location_type": 0, "parent_station": "S0101545" }, "geometry": { "type": "Point", "coordinates": [ 6.15282, 46.201764 ] } },
{ "type": "Feature", "properties": { "stop_id": "ch:1:sloid:87061:0:681082", "stop_name": "Genève, Rive", "stop_desc": null, "stop_lat": 46.201764, "stop_lon": 6.15282, "zone_id": null, "stop_url": null, "location_type": 0, "parent_station": "S0101545" }, "geometry": { "type": "Point", "coordinates": [ 6.15282, 46.201764 ] } },
{ "type": "Feature", "properties": { "stop_id": "S0101546", "stop_name": "Rive", "stop_desc": null, "stop_lat": 46.201548, "stop_lon": 6.153603, "zone_id": null, "stop_url": null, "location_type": 1, "parent_station": null }, "geometry": { "type": "Point", "coordinates": [ 6.153603, 46.201548 ] } },
{ "type": "Feature", "properties": { "stop_id": "0101546_H", "stop_name": "Rive", "stop_desc": null, "stop_lat": 46.201548, "stop_lon": 6.153603, "zone_id": null, "stop_url": null, "location_type": 0, "parent_station": "S0101546" }, "geometry": { "type": "Point", "coordinates": [ 6.153603, 46.201548 ] } },
{ "type": "Feature", "properties": { "stop_id": "ch:1:sloid:87061:0:677339", "stop_name": "Genève, Rive", "stop_desc": null, "stop_lat": 46.201548, "stop_lon": 6.153603, "zone_id": null, "stop_url": null, "location_type": 0, "parent_station": "S0101546" }, "geometry": { "type": "Point", "coordinates": [ 6.153603, 46.201548 ] } },
{ "type": "Feature", "properties": { "stop_id": "S0101547", "stop_name": "Rive", "stop_desc": null, "stop_lat": 46.201922, "stop_lon": 6.152441, "zone_id": null, "stop_url": null, "location_type": 1, "parent_station": null }, "geometry": { "type": "Point", "coordinates": [ 6.152441, 46.201922 ] } },
{ "type": "Feature", "properties": { "stop_id": "0101547_D", "stop_name": "Rive", "stop_desc": null, "stop_lat": 46.201922, "stop_lon": 6.152441, "zone_id": null, "stop_url": null, "location_type": 0, "parent_station": "S0101547" }, "geometry": { "type": "Point", "coordinates": [ 6.152441, 46.201922 ] } },
{ "type": "Feature", "properties": { "stop_id": "ch:1:sloid:87061:0:111210", "stop_name": "Genève, Rive", "stop_desc": null, "stop_lat": 46.201922, "stop_lon": 6.152441, "zone_id": null, "stop_url": null, "location_type": 0, "parent_station": "S0101547" }, "geometry": { "type": "Point", "coordinates": [ 6.152441, 46.201922 ] } },
{ "type": "Feature", "properties": { "stop_id": "S0101548", "stop_name": "Rive", "stop_desc": null, "stop_lat": 46.202622, "stop_lon": 6.153927, "zone_id": null, "stop_url": null, "location_type": 1, "parent_station": null }, "geometry": { "type": "Point", "coordinates": [ 6.153927, 46.202622 ] } },
{ "type": "Feature", "properties": { "stop_id": "0101548_J", "stop_name": "Rive", "stop_desc": null, "stop_lat": 46.202622, "stop_lon": 6.153927, "zone_id": null, "stop_url": null, "location_type": 0, "parent_station": "S0101548" }, "geometry": { "type": "Point", "coordinates": [ 6.153927, 46.202622 ] } },
{ "type": "Feature", "properties": { "stop_id": "ch:1:sloid:87061:0:490225", "stop_name": "Genève, Rive", "stop_desc": null, "stop_lat": 46.202622, "stop_lon": 6.153927, "zone_id": null, "stop_url": null, "location_type": 0, "parent_station": "S0101548" }, "geometry": { "type": "Point", "coordinates": [ 6.153927, 46.202622 ] } },
{ "type": "Feature", "properties": { "stop_id": "S0101549", "stop_name": "Rive", "stop_desc": null, "stop_lat": 46.202024, "stop_lon": 6.153488, "zone_id": null, "stop_url": null, "location_type": 1, "parent_station": null }, "geometry": { "type": "Point", "coordinates": [ 6.153488, 46.202024 ] } },
{ "type": "Feature", "properties": { "stop_id": "0101549_I", "stop_name": "Rive", "stop_desc": null, "stop_lat": 46.202024, "stop_lon": 6.153488, "zone_id": null, "stop_url": null, "location_type": 0, "parent_station": "S0101549" }, "geometry": { "type": "Point", "coordinates": [ 6.153488, 46.202024 ] } },
{ "type": "Feature", "properties": { "stop_id": "ch:1:sloid:87061:0:450545", "stop_name": "Genève, Rive", "stop_desc": null, "stop_lat": 46.202024, "stop_lon": 6.153488, "zone_id": null, "stop_url": null, "location_type": 0, "parent_station": "S0101549" }, "geometry": { "type": "Point", "coordinates": [ 6.153488, 46.202024 ] } },
{ "type": "Feature", "properties": { "stop_id": "S0101550", "stop_name": "Rive", "stop_desc": null, "stop_lat": 46.201502, "stop_lon": 6.153552, "zone_id": null, "stop_url": null, "location_type": 1, "parent_station": null }, "geometry": { "type": "Point", "coordinates": [ 6.153552, 46.201502 ] } },
{ "type": "Feature", "properties": { "stop_id": "0101550_G", "stop_name": "Rive", "stop_desc": null, "stop_lat": 46.201502, "stop_lon": 6.153552, "zone_id": null, "stop_url": null, "location_type": 0, "parent_station": "S0101550" }, "geometry": { "type": "Point", "coordinates": [ 6.153552, 46.201502 ] } },
{ "type": "Feature", "properties": { "stop_id": "ch:1:sloid:87061:0:39882", "stop_name": "Genève, Rive", "stop_desc": null, "stop_lat": 46.201502, "stop_lon": 6.153552, "zone_id": null, "stop_url": null, "location_type": 0, "parent_station": "S0101550" }, "geometry": { "type": "Point", "coordinates": [ 6.153552, 46.201502 ] } },
{ "type": "Feature", "properties": { "stop_id": "S0101551", "stop_name": "Rive", "stop_desc": null, "stop_lat": 46.201663, "stop_lon": 6.152641, "zone_id": null, "stop_url": null, "location_type": 1, "parent_station": null }, "geometry": { "type": "Point", "coordinates": [ 6.152641, 46.201663 ] } },
{ "type": "Feature", "properties": { "stop_id": "0101551_A", "stop_name": "Rive", "stop_desc": null, "stop_lat": 46.201663, "stop_lon": 6.152641, "zone_id": null, "stop_url": null, "location_type": 0, "parent_station": "S0101551" }, "geometry": { "type": "Point", "coordinates": [ 6.152641, 46.201663 ] } },
{ "type": "Feature", "properties": { "stop_id": "ch:1:sloid:87061:0:737184", "stop_name": "Genève, Rive", "stop_desc": null, "stop_lat": 46.201663, "stop_lon": 6.152641, "zone_id": null, "stop_url": null, "location_type": 0, "parent_station": "S0101551" }, "geometry": { "type": "Point", "coordinates": [ 6.152641, 46.201663 ] } },
{ "type": "Feature", "properties": { "stop_id": "S0101552", "stop_name": "Rive", "stop_desc": null, "stop_lat": 46.201911, "stop_lon": 6.152286, "zone_id": null, "stop_url": null, "location_type": 1, "parent_station": null }, "geometry": { "type": "Point", "coordinates": [ 6.152286, 46.201911 ] } },
{ "type": "Feature", "properties": { "stop_id": "0101552_C", "stop_name": "Rive", "stop_desc": null, "stop_lat": 46.201911, "stop_lon": 6.152286, "zone_id": null, "stop_url": null, "location_type": 0, "parent_station": "S0101552" }, "geometry": { "type": "Point", "coordinates": [ 6.152286, 46.201911 ] } },
{ "type": "Feature", "properties": { "stop_id": "ch:1:sloid:87061:0:343130", "stop_name": "Genève, Rive", "stop_desc": null, "stop_lat": 46.201911, "stop_lon": 6.152286, "zone_id": null, "stop_url": null, "location_type": 0, "parent_station": "S0101552" }, "geometry": { "type": "Point", "coordinates": [ 6.152286, 46.201911 ] } },
{ "type": "Feature", "properties": { "stop_id": "S0101553", "stop_name": "Rive", "stop_desc": null, "stop_lat": 46.201645, "stop_lon": 6.151813, "zone_id": null, "stop_url": null, "location_type": 1, "parent_station": null }, "geometry": { "type": "Point", "coordinates": [ 6.151813, 46.201645 ] } },
{ "type": "Feature", "properties": { "stop_id": "0101553_F", "stop_name": "Rive", "stop_desc": null, "stop_lat": 46.201645, "stop_lon": 6.151813, "zone_id": null, "stop_url": null, "location_type": 0, "parent_station": "S0101553" }, "geometry": { "type": "Point", "coordinates": [ 6.151813, 46.201645 ] } },
{ "type": "Feature", "properties": { "stop_id": "ch:1:sloid:87061:0:361538", "stop_name": "Genève, Rive", "stop_desc": null, "stop_lat": 46.201645, "stop_lon": 6.151813, "zone_id": null, "stop_url": null, "location_type": 0, "parent_station": "S0101553" }, "geometry": { "type": "Point", "coordinates": [ 6.151813, 46.201645 ] } },
{ "type": "Feature", "properties": { "stop_id": "S0101554", "stop_name": "Rive", "stop_desc": null, "stop_lat": 46.201646, "stop_lon": 6.151942, "zone_id": null, "stop_url": null, "location_type": 1, "parent_station": null }, "geometry": { "type": "Point", "coordinates": [ 6.151942, 46.201646 ] } },
{ "type": "Feature", "properties": { "stop_id": "0101554_E", "stop_name": "Rive", "stop_desc": null, "stop_lat": 46.201646, "stop_lon": 6.151942, "zone_id": null, "stop_url": null, "location_type": 0, "parent_station": "S0101554" }, "geometry": { "type": "Point", "coordinates": [ 6.151942, 46.201646 ] } },
{ "type": "Feature", "properties": { "stop_id": "ch:1:sloid:87061:0:763661", "stop_name": "Genève, Rive", "stop_desc": null, "stop_lat": 46.201646, "stop_lon": 6.151942, "zone_id": null, "stop_url": null, "location_type": 0, "parent_station": "S0101554" }, "geometry": { "type": "Point", "coordinates": [ 6.151942, 46.201646 ] } },
{ "type": "Feature", "properties": { "stop_id": "S0101555", "stop_name": "Rive", "stop_desc": null, "stop_lat": 46.202788, "stop_lon": 6.153457, "zone_id": null, "stop_url": null, "location_type": 1, "parent_station": null }, "geometry": { "type": "Point", "coordinates": [ 6.153457, 46.202788 ] } },
{ "type": "Feature", "properties": { "stop_id": "0101555_K", "stop_name": "Rive", "stop_desc": null, "stop_lat": 46.202788, "stop_lon": 6.153457, "zone_id": null, "stop_url": null, "location_type": 0, "parent_station": "S0101555" }, "geometry": { "type": "Point", "coordinates": [ 6.153457, 46.202788 ] } },
{ "type": "Feature", "properties": { "stop_id": "ch:1:sloid:87061:0:202187", "stop_name": "Genève, Rive", "stop_desc": null, "stop_lat": 46.202788, "stop_lon": 6.153457, "zone_id": null, "stop_url": null, "location_type": 0, "parent_station": "S0101555" }, "geometry": { "type": "Point", "coordinates": [ 6.153457, 46.202788 ] } },
{ "type": "Feature", "properties": { "stop_id": "S0101556", "stop_name": "Rue du Lac", "stop_desc": null, "stop_lat": 46.203527, "stop_lon": 6.157521, "zone_id": null, "stop_url": null, "location_type": 1, "parent_station": null }, "geometry": { "type": "Point", "coordinates": [ 6.157521, 46.203527 ] } },
{ "type": "Feature", "properties": { "stop_id": "0101556_T", "stop_name": "Rue du Lac", "stop_desc": null, "stop_lat": 46.203527, "stop_lon": 6.157521, "zone_id": null, "stop_url": null, "location_type": 0, "parent_station": "S0101556" }, "geometry": { "type": "Point", "coordinates": [ 6.157521, 46.203527 ] } },
{ "type": "Feature", "properties": { "stop_id": "ch:1:sloid:92900:0:741843", "stop_name": "Genève, Rue du Lac", "stop_desc": null, "stop_lat": 46.203527, "stop_lon": 6.157521, "zone_id": null, "stop_url": null, "location_type": 0, "parent_station": "S0101556" }, "geometry": { "type": "Point", "coordinates": [ 6.157521, 46.203527 ] } },
{ "type": "Feature", "properties": { "stop_id": "S0101557", "stop_name": "Rue du Lac", "stop_desc": null, "stop_lat": 46.203912, "stop_lon": 6.158147, "zone_id": null, "stop_url": null, "location_type": 1, "parent_station": null }, "geometry": { "type": "Point", "coordinates": [ 6.158147, 46.203912 ] } },
{ "type": "Feature", "properties": { "stop_id": "0101557_U", "stop_name": "Rue du Lac", "stop_desc": null, "stop_lat": 46.203912, "stop_lon": 6.158147, "zone_id": null, "stop_url": null, "location_type": 0, "parent_station": "S0101557" }, "geometry": { "type": "Point", "coordinates": [ 6.158147, 46.203912 ] } },
{ "type": "Feature", "properties": { "stop_id": "ch:1:sloid:92900:0:941892", "stop_name": "Genève, Rue du Lac", "stop_desc": null, "stop_lat": 46.203912, "stop_lon": 6.158147, "zone_id": null, "stop_url": null, "location_type": 0, "parent_station": "S0101557" }, "geometry": { "type": "Point", "coordinates": [ 6.158147, 46.203912 ] } },
{ "type": "Feature", "properties": { "stop_id": "S0101593", "stop_name": "St-Antoine", "stop_desc": null, "stop_lat": 46.199996, "stop_lon": 6.150867, "zone_id": null, "stop_url": null, "location_type": 1, "parent_station": null }, "geometry": { "type": "Point", "coordinates": [ 6.150867, 46.199996 ] } },
{ "type": "Feature", "properties": { "stop_id": "0101593_M", "stop_name": "St-Antoine", "stop_desc": null, "stop_lat": 46.199996, "stop_lon": 6.150867, "zone_id": null, "stop_url": null, "location_type": 0, "parent_station": "S0101593" }, "geometry": { "type": "Point", "coordinates": [ 6.150867, 46.199996 ] } },
{ "type": "Feature", "properties": { "stop_id": "ch:1:sloid:92907:0:531051", "stop_name": "Genève, Saint-Antoine", "stop_desc": null, "stop_lat": 46.199996, "stop_lon": 6.150867, "zone_id": null, "stop_url": null, "location_type": 0, "parent_station": "S0101593" }, "geometry": { "type": "Point", "coordinates": [ 6.150867, 46.199996 ] } },
{ "type": "Feature", "properties": { "stop_id": "S0101743", "stop_name": "Taconnerie", "stop_desc": null, "stop_lat": 46.200856, "stop_lon": 6.148113, "zone_id": null, "stop_url": null, "location_type": 1, "parent_station": null }, "geometry": { "type": "Point", "coordinates": [ 6.148113, 46.200856 ] } },
{ "type": "Feature", "properties": { "stop_id": "0101743_P", "stop_name": "Taconnerie", "stop_desc": null, "stop_lat": 46.200856, "stop_lon": 6.148113, "zone_id": null, "stop_url": null, "location_type": 0, "parent_station": "S0101743" }, "geometry": { "type": "Point", "coordinates": [ 6.148113, 46.200856 ] } },
{ "type": "Feature", "properties": { "stop_id": "ch:1:sloid:92909:0:654855", "stop_name": "Genève, Taconnerie", "stop_desc": null, "stop_lat": 46.200856, "stop_lon": 6.148113, "zone_id": null, "stop_url": null, "location_type": 0, "parent_station": "S0101743" }, "geometry": { "type": "Point", "coordinates": [ 6.148113, 46.200856 ] } },
{ "type": "Feature", "properties": { "stop_id": "S0101761", "stop_name": "Théâtre", "stop_desc": null, "stop_lat": 46.202177, "stop_lon": 6.141693, "zone_id": null, "stop_url": null, "location_type": 1, "parent_station": null }, "geometry": { "type": "Point", "coordinates": [ 6.141693, 46.202177 ] } },
{ "type": "Feature", "properties": { "stop_id": "0101761_N", "stop_name": "Théâtre", "stop_desc": null, "stop_lat": 46.202177, "stop_lon": 6.141693, "zone_id": null, "stop_url": null, "location_type": 0, "parent_station": "S0101761" }, "geometry": { "type": "Point", "coordinates": [ 6.141693, 46.202177 ] } },
{ "type": "Feature", "properties": { "stop_id": "ch:1:sloid:95022:0:750095", "stop_name": "Genève, Théâtre", "stop_desc": null, "stop_lat": 46.202177, "stop_lon": 6.141693, "zone_id": null, "stop_url": null, "location_type": 0, "parent_station": "S0101761" }, "geometry": { "type": "Point", "coordinates": [ 6.141693, 46.202177 ] } },
{ "type": "Feature", "properties": { "stop_id": "S0101762", "stop_name": "Théâtre", "stop_desc": null, "stop_lat": 46.202315, "stop_lon": 6.141962, "zone_id": null, "stop_url": null, "location_type": 1, "parent_station": null }, "geometry": { "type": "Point", "coordinates": [ 6.141962, 46.202315 ] } },
{ "type": "Feature", "properties": { "stop_id": "0101762_O", "stop_name": "Théâtre", "stop_desc": null, "stop_lat": 46.202315, "stop_lon": 6.141962, "zone_id": null, "stop_url": null, "location_type": 0, "parent_station": "S0101762" }, "geometry": { "type": "Point", "coordinates": [ 6.141962, 46.202315 ] } },
{ "type": "Feature", "properties": { "stop_id": "ch:1:sloid:95022:0:159093", "stop_name": "Genève, Théâtre", "stop_desc": null, "stop_lat": 46.202315, "stop_lon": 6.141962, "zone_id": null, "stop_url": null, "location_type": 0, "parent_station": "S0101762" }, "geometry": { "type": "Point", "coordinates": [ 6.141962, 46.202315 ] } },
{ "type": "Feature", "properties": { "stop_id": "S0101777", "stop_name": "Tranchées", "stop_desc": null, "stop_lat": 46.198492, "stop_lon": 6.155424, "zone_id": null, "stop_url": null, "location_type": 1, "parent_station": null }, "geometry": { "type": "Point", "coordinates": [ 6.155424, 46.198492 ] } },
{ "type": "Feature", "properties": { "stop_id": "0101777_F", "stop_name": "Tranchées", "stop_desc": null, "stop_lat": 46.198492, "stop_lon": 6.155424, "zone_id": null, "stop_url": null, "location_type": 0, "parent_station": "S0101777" }, "geometry": { "type": "Point", "coordinates": [ 6.155424, 46.198492 ] } },
{ "type": "Feature", "properties": { "stop_id": "ch:1:sloid:92912:0:669267", "stop_name": "Genève, Tranchées", "stop_desc": null, "stop_lat": 46.198492, "stop_lon": 6.155424, "zone_id": null, "stop_url": null, "location_type": 0, "parent_station": "S0101777" }, "geometry": { "type": "Point", "coordinates": [ 6.155424, 46.198492 ] } },
{ "type": "Feature", "properties": { "stop_id": "S0101792", "stop_name": "Terrassière", "stop_desc": null, "stop_lat": 46.201023, "stop_lon": 6.156453, "zone_id": null, "stop_url": null, "location_type": 1, "parent_station": null }, "geometry": { "type": "Point", "coordinates": [ 6.156453, 46.201023 ] } },
{ "type": "Feature", "properties": { "stop_id": "0101792_T", "stop_name": "Terrassière", "stop_desc": null, "stop_lat": 46.201023, "stop_lon": 6.156453, "zone_id": null, "stop_url": null, "location_type": 0, "parent_station": "S0101792" }, "geometry": { "type": "Point", "coordinates": [ 6.156453, 46.201023 ] } },
{ "type": "Feature", "properties": { "stop_id": "ch:1:sloid:92910:0:151460", "stop_name": "Genève, Terrassière", "stop_desc": null, "stop_lat": 46.201023, "stop_lon": 6.156453, "zone_id": null, "stop_url": null, "location_type": 0, "parent_station": "S0101792" }, "geometry": { "type": "Point", "coordinates": [ 6.156453, 46.201023 ] } },
{ "type": "Feature", "properties": { "stop_id": "S0101793", "stop_name": "Terrassière", "stop_desc": null, "stop_lat": 46.201179, "stop_lon": 6.155944, "zone_id": null, "stop_url": null, "location_type": 1, "parent_station": null }, "geometry": { "type": "Point", "coordinates": [ 6.155944, 46.201179 ] } },
{ "type": "Feature", "properties": { "stop_id": "0101793_U", "stop_name": "Terrassière", "stop_desc": null, "stop_lat": 46.201179, "stop_lon": 6.155944, "zone_id": null, "stop_url": null, "location_type": 0, "parent_station": "S0101793" }, "geometry": { "type": "Point", "coordinates": [ 6.155944, 46.201179 ] } },
{ "type": "Feature", "properties": { "stop_id": "ch:1:sloid:92910:0:333843", "stop_name": "Genève, Terrassière", "stop_desc": null, "stop_lat": 46.201179, "stop_lon": 6.155944, "zone_id": null, "stop_url": null, "location_type": 0, "parent_station": "S0101793" }, "geometry": { "type": "Point", "coordinates": [ 6.155944, 46.201179 ] } },
{ "type": "Feature", "properties": { "stop_id": "S0101794", "stop_name": "Terrassière", "stop_desc": null, "stop_lat": 46.20073, "stop_lon": 6.155242, "zone_id": null, "stop_url": null, "location_type": 1, "parent_station": null }, "geometry": { "type": "Point", "coordinates": [ 6.155242, 46.20073 ] } },
{ "type": "Feature", "properties": { "stop_id": "0101794_V", "stop_name": "Terrassière", "stop_desc": null, "stop_lat": 46.20073, "stop_lon": 6.155242, "zone_id": null, "stop_url": null, "location_type": 0, "parent_station": "S0101794" }, "geometry": { "type": "Point", "coordinates": [ 6.155242, 46.20073 ] } },
{ "type": "Feature", "properties": { "stop_id": "ch:1:sloid:92910:0:735349", "stop_name": "Genève, Terrassière", "stop_desc": null, "stop_lat": 46.20073, "stop_lon": 6.155242, "zone_id": null, "stop_url": null, "location_type": 0, "parent_station": "S0101794" }, "geometry": { "type": "Point", "coordinates": [ 6.155242, 46.20073 ] } },
{ "type": "Feature", "properties": { "stop_id": "S0101795", "stop_name": "Terrassière", "stop_desc": null, "stop_lat": 46.201034, "stop_lon": 6.155883, "zone_id": null, "stop_url": null, "location_type": 1, "parent_station": null }, "geometry": { "type": "Point", "coordinates": [ 6.155883, 46.201034 ] } },
{ "type": "Feature", "properties": { "stop_id": "0101795_W", "stop_name": "Terrassière", "stop_desc": null, "stop_lat": 46.201034, "stop_lon": 6.155883, "zone_id": null, "stop_url": null, "location_type": 0, "parent_station": "S0101795" }, "geometry": { "type": "Point", "coordinates": [ 6.155883, 46.201034 ] } },
{ "type": "Feature", "properties": { "stop_id": "ch:1:sloid:92910:0:841958", "stop_name": "Genève, Terrassière", "stop_desc": null, "stop_lat": 46.201034, "stop_lon": 6.155883, "zone_id": null, "stop_url": null, "location_type": 0, "parent_station": "S0101795" }, "geometry": { "type": "Point", "coordinates": [ 6.155883, 46.201034 ] } },
{ "type": "Feature", "properties": { "stop_id": "S0101871", "stop_name": "Villereuse", "stop_desc": null, "stop_lat": 46.200728, "stop_lon": 6.158274, "zone_id": null, "stop_url": null, "location_type": 1, "parent_station": null }, "geometry": { "type": "Point", "coordinates": [ 6.158274, 46.200728 ] } },
{ "type": "Feature", "properties": { "stop_id": "0101871_Y", "stop_name": "Villereuse", "stop_desc": null, "stop_lat": 46.200728, "stop_lon": 6.158274, "zone_id": null, "stop_url": null, "location_type": 0, "parent_station": "S0101871" }, "geometry": { "type": "Point", "coordinates": [ 6.158274, 46.200728 ] } },
{ "type": "Feature", "properties": { "stop_id": "ch:1:sloid:92924:0:136240", "stop_name": "Genève, Villereuse", "stop_desc": null, "stop_lat": 46.200728, "stop_lon": 6.158274, "zone_id": null, "stop_url": null, "location_type": 0, "parent_station": "S0101871" }, "geometry": { "type": "Point", "coordinates": [ 6.158274, 46.200728 ] } },
{ "type": "Feature", "properties": { "stop_id": "S0102405", "stop_name": "Genève, Chausse-Coq", "stop_desc": null, "stop_lat": 46.199488, "stop_lon": 6.148223, "zone_id": null, "stop_url": null, "location_type": 1, "parent_station": null }, "geometry": { "type": "Point", "coordinates": [ 6.148223, 46.199488 ] } },
{ "type": "Feature", "properties": { "stop_id": "0102405_M", "stop_name": "Genève, Chausse-Coq", "stop_desc": null, "stop_lat": 46.199488, "stop_lon": 6.148223, "zone_id": null, "stop_url": null, "location_type": 0, "parent_station": "S0102405" }, "geometry": { "type": "Point", "coordinates": [ 6.148223, 46.199488 ] } },
{ "type": "Feature", "properties": { "stop_id": "ch:1:sloid:11617:0:279", "stop_name": "Genève, Chausse-Coq", "stop_desc": null, "stop_lat": 46.199488, "stop_lon": 6.148223, "zone_id": null, "stop_url": null, "location_type": 0, "parent_station": "S0102405" }, "geometry": { "type": "Point", "coordinates": [ 6.148223, 46.199488 ] } },
{ "type": "Feature", "properties": { "stop_id": "S0102426", "stop_name": "Genève, Saint-Léger", "stop_desc": null, "stop_lat": 46.198535, "stop_lon": 6.147323, "zone_id": null, "stop_url": null, "location_type": 1, "parent_station": null }, "geometry": { "type": "Point", "coordinates": [ 6.147323, 46.198535 ] } },
{ "type": "Feature", "properties": { "stop_id": "0102426_H", "stop_name": "Genève, Saint-Léger", "stop_desc": null, "stop_lat": 46.198535, "stop_lon": 6.147323, "zone_id": null, "stop_url": null, "location_type": 0, "parent_station": "S0102426" }, "geometry": { "type": "Point", "coordinates": [ 6.147323, 46.198535 ] } },
{ "type": "Feature", "properties": { "stop_id": "ch:1:sloid:11618:0:228", "stop_name": "Genève, Saint-Léger", "stop_desc": null, "stop_lat": 46.198535, "stop_lon": 6.147323, "zone_id": null, "stop_url": null, "location_type": 0, "parent_station": "S0102426" }, "geometry": { "type": "Point", "coordinates": [ 6.147323, 46.198535 ] } }
]
}
